[
    {
        "name" : "Bluebird",
        "category" : "bar",
        "latitude" : "48.851323",
        "longitude" : "2.380601"
    },
    {
        "name" : "Osteria Ferrara",
        "category" : "restaurant",
        "latitude" : "48.8512838",
        "longitude" : "2.3821977"
    },
    {
        "name" : "Les Funambules Paris",
        "category" : "restaurant",
        "latitude" : "48.8510818",
        "longitude" : "2.3832197"
    },
    {
        "name" : "Le Mansouria",
        "category" : "restaurant",
        "latitude" : "48.8512949",
        "longitude" : "2.3826164"
    },
    {
        "name" : "En attendant l'or",
        "category" : "restaurant",
        "latitude" : "48.850588",
        "longitude" : "2.3834752"
    },
    {
        "name" : "Le bidule",
        "category" : "bar",
        "latitude" : "48.850244",
        "longitude" : "2.383676"
    },
    {
        "name" : "Les blouses blanches",
        "category" : "bar",
        "latitude" : "48.8500948",
        "longitude" : "2.3820225"
    }
]